{"historial":[{"id":"place.8188885146167790","name":"Barcelona, Barcelona, Spain","lng":2.177432,"lat":41.382894},{"id":"country.14234526759886680","name":"Kuwait","lng":47.5906041080513,"lat":29.3412115743027},{"id":"place.14797913506181400","name":"Eivissa, Balearic Islands, Spain","lng":1.425006,"lat":38.910081},{"id":"place.10507444814919450","name":"València, Valencia, Spain","lng":-0.376335,"lat":39.469707},{"id":"region.11179200074770920","name":"Castellón, Spain","lng":-0.16667,"lat":40.16667},{"id":"region.9368530433562040","name":"Madrid, Spain","lng":-3.69194,"lat":40.41889}]}